[
  {
    "name": "渋谷",
    "lat": 35.658304,
    "lng": 139.70066,
    "radiusM": 900
  },
  {
    "name": "赤坂、六本木、麻布十番、西麻布",
    "lat": 35.663543,
    "lng": 139.734284,
    "radiusM": 1200
  },
  {
    "name": "原宿、青山、表参道",
    "lat": 35.66578,
    "lng": 139.711701,
    "radiusM": 2200
  },
  {
    "name": "恵比寿、中目黒、代官山、広尾",
    "lat": 35.645496,
    "lng": 139.710739,
    "radiusM": 3500
  },
  {
    "name": "桜新町、用賀、二子玉川",
    "lat": 35.619381,
    "lng": 139.634894,
    "radiusM": 3500
  },
  {
    "name": "池尻大橋、三軒茶屋、駒沢大学",
    "lat": 35.640383,
    "lng": 139.674838,
    "radiusM": 1000
  },
  {
    "name": "銀座、有楽町、新橋、築地、月島",
    "lat": 35.66678,
    "lng": 139.76972,
    "radiusM": 1000
  }
]